lat,long,name,pop
-34.592895,-58.4391,BUENOS AIRES,13339001.6015536
-31.375329,-64.227242,Córdoba,1442000.64659388
-34.9122106904393,-57.9466819307193,La Plata,764468.872784661
-37.9684962655341,-57.628193423152,Mar del Plata-Batán,633905.593145199
-32.8888142016682,-68.8491076061296,Mendoza,923203.297204453
-27.4474945,-58.9884796,Resistencia,406284.472613334
-32.9351495,-60.6539689,Rosario,1284951.22445876
-24.7905793771783,-65.40854849621,Salta,562807.15066998
18.4655259395456,-66.1133786454954,San Juan,486313.228956941
-26.7301468031753,-65.2597928792238,Tucumán-Tafí Viejo,836411.619309512
-34.5757425,-58.5391357,General San Martín,406809
-34.7700729370117,-58.6252746582031,La Matanza,1120088
-34.6171098077009,-58.4290808959158,Lanus,468561
-34.76689379615,-58.4024499356747,Lomas de Zamora,574330
-34.6528068146942,-58.6184901371598,Morón,643553
-34.721669,-58.260539,Quilmes,511234
-32.9417915,-60.6380806,San Miguel de Tucumán,470809
-34.923507,138.598093,Adelaide,1250795
-27.467691,153.026642,Brisbane,2099328
-35.277695,149.131404,Canberra-Queanbeyan,412049
-28.135952,153.488345,Gold Coast-Tweed Heads,592389
-34.923507,138.598093,Greater Adelaide,1278432
-27.467691,153.026642,Greater Brisbane,2192065
-37.81593,144.968263,Greater Melbourne,4248344
-33.76582,150.88424,Greater Sydney,4672619
-37.81593,144.969971,Melbourne,4086734
-32.76112,151.59336,Newcastle-Maitland,420850
48.354213,-99.997878,Perth,1834184
-33.86405,151.20805,Sydney,4293416
-28.001364,153.429904,Gold Coast,493425
48.2044781437765,16.381318351337,WIEN,1741246
51.21641,4.40804,Antwerpen (Anvers),503138
41.4589264,-86.3079072,LA PAZ,789585
36.9798049288001,-122.010469408093,Santa Cruz,1113582
-1.4415272,-48.4852219,Ananindeua,470819
-10.9091511,-37.0744542,Aracaju,571149
-22.90529,-43.17866,Belford Roxo,469332
-19.931575,-43.943806,Belo Horizonte,1433244
-23.5663217605966,-46.6674552441803,BRASILIA,2481272
-22.8889561,-47.0454445,Campinas,952659
-20.46447,-54.61011,Campo Grande,774202
-29.1679726,-51.1940613,Caxias do Sul,415822
-25.4276455049415,-49.2729297754578,Curitiba,1751907
-12.2314457548956,-38.9513789489865,Feira de Santana,495516
-3.722459,-38.5087003,Fortaleza,862750
-16.703472,-49.271673,Goiânia,1296324
-23.42463,-46.475977,Guarulhos,784971
-7.113792,-34.824703,Joao Pessoa,720954
-26.309515,-48.854556,Joinville,486803
-21.7695123439474,-43.3499888330698,Juiz de Fora,489801
-23.3142397870114,-51.1651842259904,Londrina,485822
-9.650901,-35.701217,Maceió,932078
-3.112315,-60.01693,Manaus,1792881
-23.486697,-46.581646,Mauá,417064
-5.869111,-35.181139,Natal,803739
-22.92481,-43.18747,Niterói,487562
-22.761253,-43.457051,Nova Iguaçu,787563
-23.5663217605966,-46.6674552441803,Osasco,666740
-30.0365772,-51.2103119,Porto Alegre,1409351
-8.038119,-34.911863,Recife,1537704
-21.2024901,-47.8190997,Ribeirao Prêto,590593
-22.92481,-43.18747,Rio de Janeiro,6320446
-12.960216,-38.46352,Salvador,2674923
-23.6640181830751,-46.5276569712915,Santo André,568538
38.70864,-9.14771,Santos,419086
-23.5863852,-46.6417162,Sao Bernardo do Campo,736466
-23.1825757552235,-45.8834388622446,Sao José dos Campos,533501
-2.5007901,-44.2863083,Sao Luís,958545
-23.5024892,-47.4584945,Sorocaba,580621
-5.1061666,-42.767373,Teresina,767559
-18.91882,-48.2668,Uberlândia,584102
43.687913,-79.762916,Brampton,523910
51.0410899,-114.06597,Calgary,1096835
53.5189807,-113.4971429,Edmonton,812200
34.11442964357315,-87.98894838161469,Hamilton,519950
45.522169,-73.57445,Laval,401550
43.638760740612305,-79.64369129581637,Mississauga,713445
45.53385,-73.71719,Montréal,1649520
45.427836140633,-75.694200925761,OTTAWA,883395
45.427836140633,-75.694200925761,Ottawa - Gatineau,1236320
46.8118399,-71.2039099,Québec,516625
51.2824094,-0.3440507,Surrey,468250
43.64784,-79.38872,Toronto,2615060
49.28691753455261,-123.11276314110472,Vancouver,603500
49.8573178284394,-97.1509689750428,Winnipeg,663615
43.1639747244906,-79.2441789060831,St Catharines-Niagara,404357
-33.4328073,-70.6348213,Puente Alto,802109
-33.4328073,-70.6348213,SANTIAGO,5128041
25.033483,121.530112,Da'an,430512
25.033483,121.530112,Datong,1526744
22.468002,120.453847,Donggang,640340
15.31245,120.94735,Gaoan,788329
52.415164950354,-2.11347595016749,Hailun,720008
1.33285,103.74333,Jurong,594316
25.052305,121.521102,Luzhou,1252884
23.615859,120.579445,Meishan,799309
41.3455767405044,-81.3759839140964,Mishan,438277
40.72671,-73.7893,Panshi,530470
25.043501,121.506295,Taishan,948716
1.2819557431013,103.863890469074,Taonan,441096
41.47957,-81.71521,Xinji,623219
1.2819557431013,103.863890469074,Xinmin,653719
23.0291195,120.2518997,Yongkang,557067
25.066673,121.537108,Zhongshan,2363322
22.297353,114.169497,HONG KONG SAR,7187500
36.42663,-121.32654,Soledad,455029
50.0884514,14.4212799,PRAHA,1246780
55.6904038,12.6112453,KOBENHAVN,562379
18.0618434650891,-66.7689334982883,SANTO DOMINGO,965040
38.80442,-77.04009,Alexandria,4030582
31.11924,-92.06864,Mansûra,439348
60.1693803135216,24.9339735867197,HELSINKI,599676
45.748525,4.828285,Lyon,484343.999999987
43.2902787,5.3817895,Marseille,850725.99999995
48.865092,2.328464,PARIS,2243833.00000027
43.60062,1.44242,Toulouse,441801.999999936
52.5069,13.39143,BERLIN,3375222
53.0920191495183,8.77276216759416,Bremen,546451
51.5134,7.4555094,Dortmund,572087
51.052047,13.734999,Dresden,525105
51.440202,6.769755,Duisburg,486816
51.225,6.772251,Düsseldorf,593682
51.4284,6.99899,Essen,566862
50.11425,8.67434,Frankfurt am Main,687775
53.5449643,9.976384,Hamburg,1734272
52.375239,9.74691,Hannover,514137
50.9401546,6.9569739,Köln,1024373
51.3422221156623,12.3795628986725,Leipzig,520838
48.1435,11.55195,München,1388308
49.456223,11.074417,Nürnberg,495121
48.7736893,9.1822395,Stuttgart,597939
42.5224341710626,-70.8950849003412,Salem,696760
36.7257537841797,-120.059997558594,Kerman,534441
53.3457194,-6.2622157,DUBLIN,527612
39.8595739156008,-81.0750152170658,JERUSALEM,809112
44.40657,8.92797,Genova,583482
45.4812425,9.2056055,Milano,1251137
40.84978,14.26322,Napoli,960079
38.12718,13.3487,Palermo,655908
26.4016709972699,-99.0001887775975,ROMA,2626553
45.06755,7.68701,Torino,870702
39.205442,-117.0895585,KINGSTON,592291
34.668139,135.502569,Amagasaki,453748
35.5732460021973,139.367599487305,Chiba,961749
35.3113772978,139.540990048,Fujisawa,409657
33.5932179129,130.404606264,Fukuoka,1463743
34.4871198068,133.363946999,Fukuyama,461357
35.62673,139.885077,Funabashi,609040
35.4136161804199,136.759475708008,Gifu,413136
35.6582012915438,139.295974331156,Hachioji,580053
34.887111,137.872033,Hamamatsu,800866
34.668139,135.502569,Higashiosaka,509533
34.83945,134.693903,Himeji,536270
34.668139,135.502569,Hirakata,407978
34.3942105,132.4544757,Hiroshima,1173843
35.674704,139.735364,Ichikawa,473919
31.588924,130.552208,Kagoshima,605846
36.5621350492703,136.662642956727,Kanazawa,462361
35.710064,139.810701,Kashiwa,404012
35.674704,139.735364,Kawaguchi,500598
33.8834979071,130.881837614,Kitakyushu,976846
34.6930850607,135.191101825,Kobe,1544200
32.801652,130.708148,Kumamoto,734474
34.5959095252705,133.771941595454,Kurashiki,475513
35.008928,135.767685,Kyoto,1474015
35.624638,139.429159,Machida,426987
35.681375,139.770603,Matsudo,484457
33.8378313261,132.768433547,Matsuyama,517231
32.7725238753,129.864470134,Nagasaki,443766
35.168346,136.8919066,Nagoya,2263894
37.9111442565918,139.060852050781,Niigata,811901
34.6930850607,135.191101825,Nishinomiya,482640
33.236088,131.607672,Oita,474094
34.6680633500321,133.935136198997,Okayama,709584
34.668139,135.502569,Osaka,2665314
35.615983,139.257253,Sagamihara,717544
35.9184309,139.6466416,Saitama,1222434
43.0712308699,141.367920765,Sapporo,1913545
38.3197933,140.808944093,Sendai,1045986
35.2627884553,138.329733095,Shizuoka,716197
34.2765884399414,134.049392700195,Takamatsu,419429
35.680068,139.76781,TOKYO,8945695
36.578741,137.433169,Toyama,421953
36.5998675876,139.82426195,Utsunomiya,511739
35.464602,139.624816,Yokohama,3688773
35.278238,139.670506,Yokosuka,418325
35.906328,139.62218,Omiya,456271
34.1471165,-118.0006422,MONROVIA,421053
55.8233185,-4.0850067,Blantyre City,661444
4.597029,101.08629,MB Ipoh,452007
1.404357,103.793023,MB Johor Bahru,424648
3.1432699,101.70544,KUALA LUMPUR,1588750
16.818137,-99.841274,Acapulco (de Juárez),673479
21.885484141611,-102.291768975556,Aguascalientes,722250
21.0923018320483,-86.7711634191131,Cancun,628306
20.5172465523533,-100.788796270974,Celaya,468469
19.390908,-99.076289,Chimalhuacan,612383
25.6742065356243,-100.366196815071,Ciudad Apodaca,467157
19.4324388,-99.1947571,Ciudad López Mateos,489160
19.4650194474727,-99.1776364193603,Cuautitlan Izcalli,484573
24.794692,-107.434133,Culiacán Rosales,675773
24.0254915305731,-104.677627038069,Durango (Victoria de Durango),518709
19.4324388,-99.1947571,Ecatepec (de Morelos),1655015
35.09404,-106.53308,Ensenada,466814
20.67489,-103.34651,Guadalajara,1495182
25.6742065356243,-100.366196815071,Nuevo León,673616
29.1332140899598,-110.95232812597,Hermosillo,784342
20.6803398,-101.359787,Irapuato,529440
19.424913,-99.165176,Juárez,1321004
21.117639,-101.665388,León (de los Aldama),1238962
25.9438,-97.50809,Matamoros,449815
23.242228,-106.452403,Mazatlán,438434
20.97132,-89.62283,Mérida,777615
32.641273,-115.471232,Mexicali,689775
19.4151243,-99.1620289,CIUDAD DE MEXICO,8851080
25.6742065356243,-100.366196815071,Monterrey,1135512
19.702106,-101.184914,Morelia,597511
19.4324388,-99.1947571,Naucalpan de Juárez,792211
19.4324388,-99.1947571,Netzahualcóyotl,1104585
19.042101979767,-98.1998034868906,Puebla de Zaragoza,1434062
20.5934693,-100.3945344,Querétaro,626495
26.13246,-98.214722,Reynosa,589466
25.4321476916647,-100.996358157749,Saltillo,709671
22.1482470427048,-101.007392725676,San Luis Potosí,722772
25.6742065356243,-100.366196815071,San Nicolas de los Garza,443273
32.5211639915342,-117.007900206852,Tijuana,1300983
19.4324388,-99.1947571,Tlalnepantla,653410
20.63927,-103.31406,Tlaquepaque,575942
19.281049,-99.656476,Toluca (de Lerdo),489333
20.679398,-103.389803990722,Tonala,408759
25.5714640119177,-103.42050153831,Torreón,608836
16.752845644812,-93.1098534575392,Tuxtla Gutiérrez,537102
19.131924,-96.105108,Veracruz,428323
19.5256004,-96.9198074,Xalapa-Enriquez,424755
20.679398,-103.389803990722,Zapopan,1142483
52.363467950241,4.88495618841339,AMSTERDAM,779808
51.9152963,4.476452,Rotterdam,610386
52.0860901,4.31179,s-Gravenhage,639652
46.0287451,-99.9967065,The Hague,495083
-36.8489969,174.7625058,Auckland,1529400
59.91788,10.73408,OSLO,618683
39.7579650878906,-92.6256713867188,Callao,876876.999999987
14.581044,121.163776,Antipolo,677741
10.6676397323608,122.949592590332,Bacolod,511820
14.5715889424444,121.056536890451,Bacoor City,520216
8.48420221523715,124.657230712473,Cagayan de Oro,602088
10.317711,123.901773,Cebu,866171
14.2381703856501,121.055712557664,Dasmariñas,575817
7.189688,125.428561,Davao,1449296
6.118027,125.173356,General Santos,538086
10.680021,122.517279,Iloilo,424619
14.5715889424444,121.056536890451,Kalookan (Caloocan),1489040
14.447673,121.009739,Las Piñas,552573
14.552364,121.020278,Makati,529039
14.582949,120.973699,MANILA,1652171
14.5715889424444,121.056536890451,Marikina,424150
14.4216410914802,121.035629619713,Muntinlupa,459941
14.5715889424444,121.056536890451,Paranaque,588126
14.5715889424444,121.056536890451,Pasig,669773
14.705239,121.076771,Quezon City,2761720
14.6369095,121.0395584,San Jose Del Monte,454553
14.549472,121.05398,Taguig,644473
14.640551,121.061007,Valenzuela,575356
7.81735,123.3636,Zamboanga,807129
54.3535964,18.6469023,Gdansk,460354
50.06067,19.94077,Kraków,759131
51.7679291,19.4574108,Lódz,722022
52.40644,16.919857,Poznan,552393
53.4281,14.564257,Szczecin,409211
52.2285614,21.0155296,WARSZAWA,1711324
51.11302,17.0318,Wroclaw,631377
38.720261,-9.135865,LISBOA,530847
27.847898,-82.639001,St. Petersburg,4990602
-14.2813520762322,-170.639144182205,Tula,496656
38.972314,-86.129204,FREETOWN,469776
1.285331,103.8594397,SINGAPORE,5399200
35.3681229841684,-117.656350755541,Johannesburg,752349
41.392393,2.160993,Barcelona,1616383
40.4167599,-3.7068,MADRID,3220387
36.72389,-4.41942,Málaga,567956
37.98575,-1.12482,Murcia,439800
39.57058,2.64498,Palma de Mallorca,402905
37.3852681038048,-5.98673976812506,Sevilla,701262
41.6529051936233,-0.880419061695634,Zaragoza,680814
